,name,Accuracy,geometry,Latitude,Longitude,PS,PPE,PNP,PAR,MSI,DP,FOL,MAN-NPA-FK,totalkiezers,total,pctKiezers,randNumCol,area,invarea,bario,winner
0,Advent School Koraal Specht,good,POINT (-68.89689737 12.09720473),12.09720473,-68.89689737,67.0,1.0,74.0,431.0,4.0,19.0,26.0,185.0,807.0,1314,61.41552511415526,3,2466.016500000081,4055.1229077338576,Koraal Specht,PAR
16,J.W.Th. Schotborgh Kleuterschool,good,POINT (-68.89726114 12.09868077),12.09868077,-68.89726114,116.0,1.0,25.0,140.0,0.0,26.0,36.0,331.0,675.0,992,68.04435483870968,3,2466.016500000081,4055.1229077338576,Koraal Specht,MAN-NPA-FK
54,Sentro Detenshon i Korekshon Korsou,good,POINT (-68.89166185 12.0925436),12.0925436,-68.89166185,0.0,0.0,0.0,0.0,0.0,0.0,0.0,0.0,0.0,0,,3,2466.016500000081,4055.1229077338576,Koraal Specht,PS
69,Skol Marieta Alberto Paseo,good,POINT (-68.89628122 12.09631975),12.09631975,-68.89628122,116.0,3.0,41.0,151.0,1.0,13.0,32.0,261.0,618.0,1337,46.222887060583396,3,2466.016500000081,4055.1229077338576,Koraal Specht,MAN-NPA-FK
1,Albert Schweitzer Parera VSBO,good,POINT (-68.91386792 12.10753482),12.10753482,-68.91386792,84.0,1.0,36.0,188.0,0.0,18.0,23.0,153.0,503.0,682,73.75366568914956,3,1714.8786500007814,5831.3164024728185,Saliña,PAR
8,Dr. Albert Schweitzer Kleuterschool,good,POINT (-68.90579858 12.10722713),12.10722713,-68.90579858,70.0,6.0,78.0,264.0,0.0,15.0,21.0,140.0,594.0,821,72.35079171741778,3,1714.8786500007814,5831.3164024728185,Saliña,PAR
81,VSBO St. Paulus Salinja,good,POINT (-68.9053505 12.10566701),12.10566701,-68.9053505,96.0,1.0,93.0,515.0,7.0,20.0,19.0,207.0,958.0,1258,76.15262321144675,3,1714.8786500007814,5831.3164024728185,Saliña,PAR
2,Angela Jessurunschool,good,POINT (-68.86196188 12.11334361),12.11334361,-68.86196188,156.0,2.0,63.0,237.0,1.0,14.0,79.0,252.0,804.0,1378,58.345428156748916,3,1221.3622099999025,8187.579342249995,Montaña Abou,MAN-NPA-FK
3,Atanacio Emilio Goiloschool,good,POINT (-68.97024157 12.15369989),12.15369989,-68.97024157,280.0,8.0,166.0,844.0,16.0,63.0,160.0,642.0,2179.0,5263,44.456030774831795,3,2871.3124750004704,3482.7278769087516,Groot Piscadera,PAR
14,H.J.A. Schroederschool,good,POINT (-68.96985492 12.15291124),12.15291124,-68.96985492,185.0,4.0,48.0,158.0,2.0,19.0,82.0,403.0,901.0,1392,64.72701149425288,3,2871.3124750004704,3482.7278769087516,Groot Piscadera,MAN-NPA-FK
80,University of Curacao,good,POINT (-68.96101605 12.15746791),12.15746791,-68.96101605,350.0,12.0,155.0,498.0,8.0,50.0,190.0,668.0,1931.0,2950,65.45112610883766,3,2871.3124750004704,3482.7278769087516,Groot Piscadera,MAN-NPA-FK
4,B.T.G. gebouw,good,POINT (-68.9061915 12.09234313),12.09234313,-68.9061915,101.0,2.0,41.0,166.0,0.0,15.0,20.0,186.0,531.0,719,73.85257301808068,3,1024.1566249996736,9764.131536036479,Steenrijk,MAN-NPA-FK
6,Bokshal Marie Pampoen,approx,POINT (-68.9073393 12.09352217),12.09352217,-68.9073393,109.0,3.0,44.0,294.0,0.0,22.0,22.0,159.0,653.0,862,75.75406032482599,3,1024.1566249996736,9764.131536036479,Steenrijk,PAR
15,Hub. den Ambiente Sano (Dep.RKMTS),bad,POINT (-68.91322809 12.1018767),12.1018767,-68.91322809,104.0,0.0,30.0,157.0,0.0,12.0,38.0,170.0,511.0,826,61.86440677966102,3,1024.1566249996736,9764.131536036479,Steenrijk,MAN-NPA-FK
73,St. Albertus College,good,POINT (-68.91488906 12.10029972),12.10029972,-68.91488906,118.0,0.0,58.0,170.0,2.0,12.0,19.0,126.0,505.0,1352,37.35207100591716,3,1024.1566249996736,9764.131536036479,Steenrijk,PAR
5,Berg Carmel College,bad,POINT (-68.91615756 12.10772965),12.10772965,-68.91615756,64.0,2.0,38.0,198.0,0.0,16.0,29.0,203.0,550.0,848,64.85849056603774,3,702.453944999909,14235.808726223746,Berg Altena,MAN-NPA-FK
46,Oranjeschool,good,POINT (-68.92207281 12.10204775),12.10204775,-68.92207281,79.0,2.0,35.0,119.0,1.0,20.0,28.0,138.0,422.0,1364,30.93841642228739,3,702.453944999909,14235.808726223746,Berg Altena,MAN-NPA-FK
7,Cola Debrot School,good,POINT (-68.94947646 12.13964816),12.13964816,-68.94947646,118.0,0.0,67.0,153.0,0.0,19.0,66.0,273.0,696.0,115,605.2173913043478,3,1230.5288949999435,8126.586901480651,Rosendaal,MAN-NPA-FK
9,Emmy Berthold Kleuterschool,good,POINT (-68.92895591 12.15508797),12.15508797,-68.92895591,85.0,2.0,26.0,146.0,0.0,21.0,46.0,220.0,546.0,778,70.17994858611826,3,1560.4220700000035,6408.522535188174,Stenen Koraal,MAN-NPA-FK
37,Maduro Kleuterschool,approx,POINT (-68.94050894 12.16541561),12.16541561,-68.94050894,125.0,3.0,57.0,212.0,2.0,16.0,92.0,383.0,890.0,1493,59.611520428667106,3,1560.4220700000035,6408.522535188174,Stenen Koraal,MAN-NPA-FK
38,Maduroschool (Skol Basiko),good,POINT (-68.93993426 12.16548132),12.16548132,-68.93993426,124.0,5.0,64.0,109.0,1.0,11.0,58.0,240.0,612.0,990,61.81818181818181,3,1560.4220700000035,6408.522535188174,Stenen Koraal,MAN-NPA-FK
27,Kolegio Maria Auxiliadora,good,POINT (-68.94266152 12.15874524),12.15874524,-68.94266152,344.0,7.0,166.0,661.0,4.0,51.0,160.0,665.0,2058.0,3777,54.99016848641259,3,2202.7185950001244,4539.844546052618,Stenen Koraal,MAN-NPA-FK
62,Sentro di Bario Santa Maria,good,POINT (-68.94165382 12.15746306),12.15746306,-68.94165382,77.0,5.0,48.0,210.0,0.0,24.0,33.0,136.0,533.0,756,70.5026455026455,3,2202.7185950001244,4539.844546052618,Stenen Koraal,PAR
74,St. Antonius College,good,POINT (-68.94165793 12.15683805),12.15683805,-68.94165793,92.0,4.0,65.0,206.0,0.0,10.0,29.0,207.0,613.0,863,71.03128621089225,3,2202.7185950001244,4539.844546052618,Stenen Koraal,MAN-NPA-FK
77,St. Joris College,good,POINT (-68.94482156 12.15968138),12.15968138,-68.94482156,241.0,7.0,159.0,550.0,4.0,36.0,127.0,500.0,1624.0,2010,78.19773499615286,3,2202.7185950001244,4539.844546052618,Stenen Koraal,PAR
10,Fatima College,good,POINT (-68.92674545 12.15199248),12.15199248,-68.92674545,232.0,2.0,101.0,477.0,3.0,24.0,66.0,440.0,1345.0,808,3498.890284757119,3,1398.851330000067,7148.722516494674,Suffisant,PAR
13,Gouv. J.R. Laufferschool,good,POINT (-68.91816418 12.14721026),12.14721026,-68.91816418,191.0,2.0,106.0,722.0,0.0,32.0,46.0,279.0,1378.0,1138,121.0896309314587,3,1398.851330000067,7148.722516494674,Suffisant,PAR
47,Prins Bernhard Kleuterschool,good,POINT (-68.92396509 12.14598166),12.14598166,-68.92396509,58.0,0.0,48.0,269.0,1.0,13.0,26.0,139.0,554.0,848,65.33018867924528,3,1398.851330000067,7148.722516494674,Suffisant,PAR
79,Stella Maris College,good,POINT (-68.92781356 12.14736469),12.14736469,-68.92781356,91.0,0.0,45.0,169.0,1.0,10.0,45.0,203.0,564.0,878,64.2369020501139,3,1398.851330000067,7148.722516494674,Suffisant,MAN-NPA-FK
11,Frater Aurelio SBO,good,POINT (-68.92458758 12.10404499),12.10404499,-68.92458758,77.0,1.0,39.0,111.0,0.0,18.0,48.0,190.0,484.0,115,420.86956521739125,3,197.5847350000078,50611.19726683139,Pietermaai,MAN-NPA-FK
72,Springplank,good,POINT (-68.92624462 12.10296725),12.10296725,-68.92624462,153.0,3.0,30.0,125.0,2.0,9.0,70.0,317.0,709.0,898,78.9532293986637,3,197.5847350000078,50611.19726683139,Pietermaai,MAN-NPA-FK
12,Glorieux College,bad,POINT (-68.89505149 12.14953538),12.14953538,-68.89505149,155.0,0.0,100.0,454.0,8.0,17.0,59.0,302.0,1095.0,1591,68.70266006481474,3,4106.59560499983,2435.107072102468,Brievengat zone,PAR
36,Kolegio Sur Herman Joseph,good,POINT (-68.88738258 12.14903375),12.14903375,-68.88738258,129.0,3.0,43.0,137.0,0.0,10.0,47.0,261.0,630.0,1027,61.34371957156767,3,4106.59560499983,2435.107072102468,Brievengat zone,MAN-NPA-FK
49,Prof. Dr. I.C. van Houteschool,good,POINT (-68.89453723 12.14709052),12.14709052,-68.89453723,74.0,0.0,29.0,118.0,1.0,0.0,25.0,158.0,405.0,1137,35.62005277044855,3,4106.59560499983,2435.107072102468,Brievengat zone,MAN-NPA-FK
57,Sentro di Bario Brievengat,good,POINT (-68.89502873 12.14949405),12.14949405,-68.89502873,100.0,2.0,53.0,239.0,3.0,9.0,43.0,197.0,646.0,1127,57.32031943212067,3,4106.59560499983,2435.107072102468,Brievengat zone,PAR
67,Skol Basiko Immanuel,good,POINT (-68.89206881 12.15219405),12.15219405,-68.89206881,129.0,2.0,71.0,392.0,6.0,28.0,30.0,172.0,830.0,1179,70.39864291772689,3,4106.59560499983,2435.107072102468,Brievengat zone,PAR
70,Skol Preparatorio Immanuel,good,POINT (-68.89164985 12.15295435),12.15295435,-68.89164985,44.0,1.0,35.0,111.0,1.0,10.0,25.0,110.0,337.0,1504,22.40691489361702,3,4106.59560499983,2435.107072102468,Brievengat zone,PAR
17,Johan van Walbeeck Kleuterschool,good,POINT (-68.89853204 12.12417421),12.12417421,-68.89853204,20.0,2.0,64.0,504.0,2.0,20.0,8.0,100.0,720.0,989,72.80080889787665,3,359.0853399999665,27848.53316484859,Mahaai,PAR
44,Michiel Martinus Romerschool,good,POINT (-68.90019614 12.12468555),12.12468555,-68.90019614,27.0,5.0,93.0,662.0,2.0,17.0,21.0,95.0,922.0,1225,75.26530612244898,3,359.0853399999665,27848.53316484859,Mahaai,PAR
50,Radulphus College,good,POINT (-68.89445843 12.12870686),12.12870686,-68.89445843,37.0,4.0,75.0,579.0,4.0,25.0,16.0,66.0,806.0,1028,78.40466926070039,3,2402.32664500043,4162.631264491599,Mahaai,PAR
18,Juan Pablo Duarteschool,good,POINT (-68.9365126 12.14141245),12.14141245,-68.9365126,193.0,5.0,79.0,276.0,5.0,32.0,77.0,399.0,1066.0,1716,62.44432737895694,3,1577.026474999909,6341.047635234264,Buena Vista zone,MAN-NPA-FK
30,Kolegio Nechie Pieters,good,POINT (-68.93979609 12.14504001),12.14504001,-68.93979609,232.0,3.0,77.0,221.0,0.0,18.0,98.0,462.0,1111.0,1780,62.462268328488534,3,1577.026474999909,6341.047635234264,Buena Vista zone,MAN-NPA-FK
48,Prinses Margrietschool,good,POINT (-68.94265621 12.14344589),12.14344589,-68.94265621,93.0,4.0,32.0,131.0,0.0,16.0,44.0,213.0,533.0,891,59.82042648709316,3,1577.026474999909,6341.047635234264,Buena Vista zone,MAN-NPA-FK
58,Sentro di Bario Buena Vista,good,POINT (-68.93994224 12.14578818),12.14578818,-68.93994224,93.0,0.0,61.0,162.0,1.0,10.0,44.0,189.0,560.0,868,64.51612903225806,3,1577.026474999909,6341.047635234264,Buena Vista zone,MAN-NPA-FK
19,Kol. Mgr. J. Henriquez (Giovanni),good,POINT (-68.82498096 12.09069334),12.09069334,-68.82498096,102.0,2.0,72.0,183.0,3.0,16.0,31.0,177.0,586.0,1044,56.13026819923371,3,5157.948150000786,1938.7554332042823,Seru Grandi,PAR
28,Kolegio Mgr. J. Henriquez (Girasol),good,POINT (-68.82498096 12.09069334),12.09069334,-68.82498096,125.0,2.0,70.0,131.0,2.0,10.0,29.0,275.0,644.0,1045,61.62679425837321,3,5157.948150000786,1938.7554332042823,Seru Grandi,MAN-NPA-FK
20,Kolegio Alejandro Paula,good,POINT (-68.90691669 12.13883732),12.13883732,-68.90691669,46.0,1.0,70.0,468.0,3.0,11.0,20.0,137.0,756.0,977,77.37973387922212,3,2013.464189999763,4966.564615187508,Groot Kwartier,PAR
42,Marnix Kleuterschool,good,POINT (-68.91799478 12.14438535),12.14438535,-68.91799478,57.0,1.0,44.0,377.0,3.0,23.0,15.0,100.0,620.0,895,69.27374301675978,3,2013.464189999763,4966.564615187508,Groot Kwartier,PAR
21,Kolegio Annie Koenraad,good,POINT (-69.02892947 12.22673486),12.22673486,-69.02892947,160.0,3.0,116.0,376.0,0.0,44.0,43.0,365.0,1107.0,1245,88.91566265060241,3,15987.870984999681,625.4741490835341,Tera Corá,PAR
64,Sentro di Bario Tera Kora,bad,POINT (-69.02818922 12.22832063),12.22832063,-69.02818922,59.0,5.0,21.0,71.0,4.0,14.0,14.0,148.0,336.0,872,38.53211009174312,3,15987.870984999681,625.4741490835341,Tera Corá,MAN-NPA-FK
68,Skol Elis Juliana,good,POINT (-69.03025297 12.2269708),12.2269708,-69.03025297,118.0,2.0,63.0,156.0,4.0,17.0,40.0,291.0,691.0,1086,63.62799263351749,3,15987.870984999681,625.4741490835341,Tera Corá,MAN-NPA-FK
22,Kolegio Bellefaas Martis,good,POINT (-68.87203914 12.12368566),12.12368566,-68.87203914,337.0,11.0,212.0,996.0,4.0,69.0,102.0,816.0,2547.0,4523,54.59399139127151,3,606.9984099999929,16474.507733883715,Santa Rosa,PAR
33,Kolegio San Martin de Porres,good,POINT (-68.87019955 12.12278973),12.12278973,-68.87019955,168.0,2.0,105.0,394.0,1.0,22.0,40.0,233.0,965.0,1374,70.23289665211063,3,606.9984099999929,16474.507733883715,Santa Rosa,PAR
51,Regina Pacis Bovenbouw,approx,POINT (-68.87164414 12.12428285),12.12428285,-68.87164414,197.0,4.0,87.0,338.0,1.0,10.0,43.0,361.0,1041.0,1188,87.62626262626263,3,606.9984099999929,16474.507733883715,Santa Rosa,MAN-NPA-FK
52,Regina Pacis Onderbouw,good,POINT (-68.87176551 12.12415888),12.12415888,-68.87176551,25.0,1.0,56.0,600.0,4.0,14.0,15.0,74.0,789.0,1072,73.6007462686567,3,606.9984099999929,16474.507733883715,Santa Rosa,PAR
63,Sentro di Bario Santa Rosa,good,POINT (-68.87113238 12.1229604),12.1229604,-68.87113238,119.0,3.0,87.0,493.0,3.0,21.0,34.0,252.0,1012.0,1299,77.90608160123172,3,606.9984099999929,16474.507733883715,Santa Rosa,PAR
23,Kolegio Dodo Palm,good,POINT (-68.93636124 12.17393447),12.17393447,-68.93636124,189.0,4.0,65.0,184.0,2.0,20.0,129.0,652.0,1245.0,2218,56.26230571637198,3,1885.4678599998672,5303.723395211152,Fortuna,MAN-NPA-FK
24,Kolegio Don Sarto,good,POINT (-69.1119117 12.27630329),12.27630329,-69.1119117,114.0,10.0,136.0,219.0,5.0,30.0,98.0,652.0,1264.0,2184,57.681774008304615,3,15152.656640000145,659.9502805073728,Soto,MAN-NPA-FK
25,Kolegio Iris Bruyning,good,POINT (-68.87616393 12.14292501),12.14292501,-68.87616393,363.0,17.0,173.0,672.0,3.0,62.0,180.0,876.0,2346.0,2450,101.07933950865888,3,3976.0609650000424,2515.0519793400335,Bonam,MAN-NPA-FK
26,Kolegio Iris Bruyning (Kleutersch.),good,POINT (-68.87616393 12.14292501),12.14292501,-68.87616393,168.0,3.0,115.0,727.0,4.0,32.0,55.0,287.0,1391.0,3432,42.682374997072856,3,3976.0609650000424,2515.0519793400335,Bonam,PAR
56,Sentro di Bario Bonam,good,POINT (-68.87694397 12.14241248),12.14241248,-68.87694397,167.0,2.0,92.0,346.0,1.0,22.0,51.0,339.0,1020.0,1451,70.29634734665747,3,3976.0609650000424,2515.0519793400335,Bonam,PAR
29,Kolegio Mgr. Willem Ellis,good,POINT (-68.94970017 12.12211637),12.12211637,-68.94970017,139.0,3.0,42.0,114.0,0.0,17.0,39.0,248.0,602.0,978,61.554192229038854,3,507.0753700000512,19720.93418775002,Habaai,MAN-NPA-FK
39,Maria College,good,POINT (-68.94803818 12.11895967),12.11895967,-68.94803818,60.0,2.0,46.0,196.0,5.0,17.0,20.0,161.0,507.0,819,61.904761904761905,3,507.0753700000512,19720.93418775002,Habaai,PAR
40,Maria Immaculata Lyceum,good,POINT (-68.94819624 12.12043892),12.12043892,-68.94819624,101.0,1.0,32.0,151.0,0.0,15.0,16.0,151.0,467.0,720,64.86111111111111,3,507.0753700000512,19720.93418775002,Habaai,PAR
31,Kolegio San Dominico,good,POINT (-68.84750828 12.10723238),12.10723238,-68.84750828,469.0,24.0,359.0,774.0,2.0,43.0,124.0,766.0,2561.0,3964,64.56784760544112,3,2992.189509999959,3342.0343085154846,Montaña Rey,PAR
41,Maris Stella VSBO,bad,POINT (-68.84929844 12.10606473),12.10606473,-68.84929844,42.0,0.0,105.0,994.0,19.0,52.0,43.0,121.0,1376.0,1402,98.14550641940085,3,2992.189509999959,3342.0343085154846,Montaña Rey,PAR
45,Openbaar A.G.O.,good,POINT (-68.84837008 12.10690311),12.10690311,-68.84837008,215.0,6.0,177.0,581.0,1.0,30.0,61.0,361.0,1432.0,2624,53.79728414680963,3,2992.189509999959,3342.0343085154846,Montaña Rey,PAR
60,Sentro di Bario Montanja di Rey,good,POINT (-68.84876657 12.10512037),12.10512037,-68.84876657,136.0,4.0,114.0,289.0,0.0,15.0,50.0,347.0,955.0,1449,65.90752242926156,3,2992.189509999959,3342.0343085154846,Montaña Rey,MAN-NPA-FK
32,Kolegio San Hose,good,POINT (-69.07308907 12.2878623),12.2878623,-69.07308907,213.0,27.0,179.0,285.0,2.0,21.0,98.0,731.0,1556.0,2516,62.031849586473925,3,7487.155910000037,1335.6206442347147,Barber,MAN-NPA-FK
71,Skol Tekniko Joseph Civillis,good,POINT (-69.07176251 12.28795052),12.28795052,-69.07176251,104.0,6.0,61.0,129.0,0.0,12.0,42.0,332.0,686.0,1155,59.3939393939394,3,7487.155910000037,1335.6206442347147,Barber,MAN-NPA-FK
34,Kolegio Santa Clara,good,POINT (-68.977667 12.14889268),12.14889268,-68.977667,208.0,6.0,174.0,563.0,3.0,43.0,88.0,538.0,1623.0,2439,65.41724651480749,3,14922.323884999947,670.1369087727742,Sint Michiel,PAR
55,Sentro di Bario Boca,good,POINT (-68.99977584 12.14350992),12.14350992,-68.99977584,150.0,2.0,81.0,383.0,6.0,31.0,122.0,360.0,1135.0,966,117.49482401656314,3,14922.323884999947,670.1369087727742,Sint Michiel,PAR
35,Kolegio Santa Famia,good,POINT (-68.94002496 12.11385125),12.11385125,-68.94002496,145.0,3.0,60.0,310.0,0.0,42.0,92.0,334.0,986.0,3348,29.816750548457865,3,1125.3866300001196,8885.835084071452,Domi,MAN-NPA-FK
53,Scholengemeenschap O'banda,approx,POINT (-68.94675417 12.11127631),12.11127631,-68.94675417,57.0,2.0,33.0,215.0,0.0,14.0,15.0,122.0,458.0,1053,43.49477682811016,3,1125.3866300001196,8885.835084071452,Domi,PAR
43,Mgr. Nieuwindt College,good,POINT (-68.95215235 12.11187597),12.11187597,-68.95215235,171.0,2.0,96.0,398.0,5.0,36.0,63.0,341.0,1112.0,1669,66.91113936385206,3,147.21411499996708,67928.26897069099,Mundo Nobo,PAR
59,Sentro di Bario Janwe,bad,POINT (-68.89499355 12.10964138),12.10964138,-68.89499355,118.0,5.0,96.0,286.0,2.0,17.0,65.0,263.0,852.0,1392,61.206896551724135,3,3957.2805199996656,2526.9879022882224,Seru Lora,PAR
75,St. Franciscus College,good,POINT (-68.89490923 12.10750404),12.10750404,-68.89490923,129.0,4.0,82.0,474.0,1.0,35.0,46.0,261.0,1032.0,2126,55.15945133538334,3,3957.2805199996656,2526.9879022882224,Seru Lora,PAR
78,St. Margarethaschool,good,POINT (-68.89611082 12.10890327),12.10890327,-68.89611082,109.0,2.0,55.0,341.0,1.0,24.0,39.0,182.0,753.0,998,75.45090180360722,3,3957.2805199996656,2526.9879022882224,Seru Lora,PAR
61,Sentro di Bario San Willibrordo,bad,POINT (-69.06476882 12.21636167),12.21636167,-69.06476882,64.0,2.0,55.0,265.0,5.0,25.0,27.0,143.0,586.0,1084,54.05904059040591,3,19534.721189999902,511.9090210061017,St. Willibrordus,PAR
65,Sentro di Bario Westpunt,good,POINT (-69.15119902 12.37304516),12.37304516,-69.15119902,82.0,9.0,96.0,123.0,1.0,13.0,31.0,251.0,606.0,894,67.78523489932886,3,11391.289529999847,877.8637373463488,Westpunt,MAN-NPA-FK
66,Sentro di Bario Wishi-Marchena,bad,POINT (-68.95497122 12.12839042),12.12839042,-68.95497122,55.0,3.0,59.0,79.0,2.0,10.0,18.0,192.0,418.0,132,316.66666666666663,3,291.44650500003075,34311.61406447109,Wishi,MAN-NPA-FK
76,St. Ignatius College,good,POINT (-68.91521126 12.1454221),12.1454221,-68.91521126,75.0,3.0,62.0,345.0,0.0,14.0,43.0,189.0,731.0,1014,72.09072978303747,3,1699.6545350000963,5883.548564767271,Mon Repos,PAR
